City_ID,City,Lat,Lng,Max Temp,Humidity,Cloudiness,Wind Speed,Country,Date
0,longyearbyen,78.2186,15.6401,277.06,70,0,4.12,SJ,1686177114
1,edinburgh of the seven seas,-37.0676,-12.3116,288.15,83,12,12.05,SH,1686177114
2,avarua,-21.2078,-159.775,299.18,69,20,6.69,CK,1686177114
3,wailua homesteads,22.0669,-159.378,300.85,76,20,4.63,US,1686177114
4,whangarei,-35.7317,174.3239,286.89,79,69,3.91,NZ,1686177114
5,grytviken,-54.2811,-36.5092,275.58,98,100,3.29,GS,1686177115
6,port saint john's,-31.6229,29.5448,292.56,61,9,5.16,ZA,1686177115
7,margaret river,-33.95,115.0667,288.33,74,98,4.86,AU,1686177115
8,papatowai,-46.5619,169.4708,280.81,79,48,0.86,NZ,1686177115
9,broken hill,-31.95,141.4333,283.7,57,2,6.76,AU,1686177116
10,magong,23.5654,119.5863,300.67,87,95,6.45,TW,1686177116
11,bethel,41.3712,-73.414,292.32,59,100,2.57,US,1686176935
12,inarajan village,13.2736,144.7484,301.92,85,100,5.18,GU,1686177116
13,west island,-12.1568,96.8225,299.14,83,75,8.75,CC,1686177116
14,puerto natales,-51.7236,-72.4875,274.27,93,100,1.73,CL,1686177117
15,punta arenas,-53.15,-70.9167,275.21,75,20,5.14,CL,1686177117
16,zheleznodorozhnyy,55.7503,38.0042,287.38,87,37,1.62,RU,1686177117
17,turpan,42.9333,89.1667,305.81,10,18,0.68,CN,1686177117
18,chulakkurgan,43.765,69.1814,298.62,29,9,4.81,KZ,1686177117
19,formosa,-26.1775,-58.1781,294.24,83,0,2.56,AR,1686177117
20,passau,48.5712,13.449,289.6,96,25,1.21,DE,1686177118
21,tiksi,71.6872,128.8694,276.95,80,96,1.3,RU,1686177118
22,ancud,-41.8697,-73.8203,285.04,89,100,10.52,CL,1686177118
23,callaway,30.153,-85.5699,301.47,68,20,5.14,US,1686177118
24,puerto cabezas,14.0351,-83.3888,301.13,83,75,3.09,NI,1686177119
25,kangding,30.0513,101.9603,283.72,99,100,1.32,CN,1686177119
26,ust-nera,64.5667,143.2,281.68,88,100,0.49,RU,1686177119
27,barclayville,4.6797,-8.2339,297.61,92,100,1.6,LR,1686177119
28,blackmans bay,-43.0167,147.3167,287.22,93,100,2.32,AU,1686177119
29,udachny,66.4167,112.4,284.51,61,97,3.64,RU,1686177119
30,haiku-pauwela,20.9219,-156.3051,303.16,57,20,9.77,US,1686177120
31,ponta pora,-22.5361,-55.7256,288.7,80,0,2.53,BR,1686177120
32,thompson,55.7435,-97.8558,302.24,51,40,2.57,CA,1686177120
33,port alfred,-33.5906,26.891,286.03,94,2,0.89,ZA,1686177120
34,sao felix do xingu,-6.6447,-51.995,297.66,69,14,1.29,BR,1686177120
35,castillos,-34.1667,-53.8333,288.73,87,100,2.41,UY,1686177121
36,price,39.5994,-110.8107,297.1,23,75,7.2,US,1686177121
37,waitangi,-43.9535,-176.5597,284.72,82,100,0.45,NZ,1686177121
38,chibougamau,49.9168,-74.3659,286.94,58,100,4.63,CA,1686177121
39,adamstown,-25.066,-130.1015,294.85,70,3,5.78,PN,1686177121
40,bouar,5.934,15.596,291.96,97,100,1.09,CF,1686177122
41,smithers,54.7804,-127.1743,297.33,23,20,2.06,CA,1686177013
42,port-aux-francais,-49.35,70.2167,276.02,81,100,5.27,TF,1686177122
43,astoria,46.1879,-123.8313,292.3,73,0,4.12,US,1686177122
44,porto-vecchio,41.591,9.2795,292.89,94,0,1.54,FR,1686177123
45,solnechnyy,50.7214,136.6319,288.47,85,65,2.43,RU,1686177123
46,minas de marcona,-15.2119,-75.1103,287.91,78,8,4.32,PE,1686177123
47,posadas,-27.3671,-55.8961,296.14,73,0,1.54,AR,1686177123
48,paracuru,-3.41,-39.0306,300.99,82,0,5.5,BR,1686177123
49,kone,-21.0595,164.8658,296.41,54,2,2.1,NC,1686177123
50,lavras,-21.2453,-44.9997,287.78,60,0,0.81,BR,1686176903
51,alpena,45.0617,-83.4327,295.33,35,20,5.66,US,1686177124
52,tongliao,43.6125,122.2653,291.56,35,2,6.23,CN,1686177124
53,namibe,-15.1961,12.1522,291.18,76,5,3.22,AO,1686177124
54,hamilton,39.1834,-84.5333,298.08,28,0,5.66,US,1686177125
55,okha,53.5739,142.9478,280.99,73,31,5.74,RU,1686177125
56,yelizovo,53.1873,158.3805,285.23,57,0,1.0,RU,1686177125
57,quang ngai,15.1167,108.8,298.84,88,100,1.5,VN,1686177125
58,delacombe,-37.5891,143.8147,281.89,96,36,1.79,AU,1686177126
59,ushuaia,-54.8,-68.3,274.96,80,0,3.09,AR,1686177125
60,linfen,36.0889,111.5189,297.63,42,0,0.67,CN,1686177126
61,fale old settlement,-9.3852,-171.2468,301.71,70,28,2.31,TK,1686177126
62,ta`u,-14.2336,-169.5144,300.08,81,98,7.55,AS,1686177126
63,katsuura,35.1333,140.3,295.54,71,98,2.89,JP,1686177127
64,leninskoye,41.7589,69.3864,297.14,18,34,2.4,KZ,1686177127
65,yuzhno-kurilsk,44.0306,145.8556,286.38,92,96,2.54,RU,1686177127
66,kapa'a,22.0752,-159.319,301.59,76,20,4.63,US,1686177127
67,atafu village,-8.5421,-172.5159,301.77,72,26,2.94,TK,1686177127
68,punta cardon,11.6581,-70.215,302.29,72,21,14.05,VE,1686177128
69,ribeira grande,38.5167,-28.7,291.37,72,40,3.58,PT,1686177128
70,turkmenbasy,40.0222,52.9552,293.58,60,75,8.23,TM,1686177128
71,isafjordur,66.0755,-23.124,281.62,87,100,6.92,IS,1686177128
72,fortuna,40.5982,-124.1573,290.33,86,100,3.6,US,1686177128
73,kerikeri,-35.2268,173.9474,288.1,77,41,1.34,NZ,1686177129
74,pryluky,50.5932,32.3876,287.81,87,100,1.07,UA,1686177129
75,antsiranana,-12.2787,49.2917,296.71,81,4,6.99,MG,1686177129
76,kalach,50.4258,41.0261,285.82,79,12,0.35,RU,1686177129
77,shakawe,-18.3667,21.85,288.68,34,0,1.95,BW,1686177129
78,port mathurin,-19.6833,63.4167,297.89,70,1,8.16,MU,1686177130
79,kailua-kona,19.6406,-155.9956,301.13,81,40,4.63,US,1686177130
80,campbellton,48.0075,-66.6727,282.4,95,100,3.15,CA,1686177130
81,pyapon,16.2833,95.6833,299.28,85,100,3.61,MM,1686177130
82,hawaiian paradise park,19.5933,-154.9731,300.39,76,100,1.54,US,1686177131
83,yingshang chengguanzhen,32.6295,116.2701,296.21,67,49,4.31,CN,1686177131
84,as saffaniyah,27.9708,48.73,306.06,31,25,4.67,SA,1686177131
85,psygansu,43.4194,43.7936,285.9,94,11,2.0,RU,1686177131
86,bilibino,68.0546,166.4372,288.81,32,12,3.37,RU,1686177131
87,novyy urengoy,66.0833,76.6333,283.63,70,99,5.89,RU,1686177132
88,constantia,44.1833,28.65,286.53,73,98,2.4,RO,1686177132
89,porto novo,6.4965,2.6036,300.05,88,75,3.16,BJ,1686177132
90,puerto ayora,-0.7393,-90.3518,303.13,88,94,2.68,EC,1686177132
91,sola,-13.8833,167.55,299.45,74,99,9.33,VU,1686177133
92,yellowknife,62.456,-114.3525,284.44,76,75,2.06,CA,1686177030
93,tolanaro,-25.0319,46.9987,296.19,73,20,4.12,MG,1686177133
94,balqash,46.8481,74.995,296.45,41,48,5.92,KZ,1686177133
95,invercargill,-46.4,168.35,278.38,88,79,2.31,NZ,1686176838
96,north battleford,52.7834,-108.2847,300.2,32,0,2.06,CA,1686177134
97,shimoda,34.6667,138.95,297.65,78,100,0.42,JP,1686177134
98,santa cruz,-17.8,-63.1667,299.18,78,20,5.14,BO,1686177134
99,petropavlovsk-kamchatsky,53.0452,158.6483,284.48,58,0,1.0,RU,1686177134
100,olonkinbyen,70.9221,-8.7187,274.86,85,96,4.5,SJ,1686177134
101,college,64.8569,-147.8028,297.09,38,75,0.45,US,1686176932
102,jamestown,42.097,-79.2353,291.77,34,100,2.57,US,1686177065
103,el alcazar,-26.7146,-54.8152,289.95,77,2,0.8,AR,1686177135
104,al fuwayliq,26.4432,43.2534,303.01,19,0,4.22,SA,1686177135
105,cabo san lucas,22.8909,-109.9124,305.71,47,0,4.63,MX,1686177043
106,mount isa,-20.7333,139.5,291.02,72,40,3.09,AU,1686177135
107,badger,64.8,-147.5333,297.04,37,75,0.45,US,1686177136
108,iqaluit,63.7506,-68.5145,276.0,86,75,1.03,CA,1686177011
109,aldinga beach,-35.2793,138.4604,287.96,77,79,9.5,AU,1686177136
110,chajari,-30.7505,-57.9796,294.26,76,100,2.12,AR,1686177136
111,suifenhe,44.4,131.1667,285.24,98,100,2.34,CN,1686177137
112,auki,-8.7676,160.7034,301.79,73,40,0.55,SB,1686177137
113,vangaindrano,-23.35,47.6,292.93,93,20,1.33,MG,1686177137
114,nakamura,32.9833,132.9333,292.69,87,100,1.28,JP,1686177137
115,swift current,50.2834,-107.8014,292.6,88,75,4.63,CA,1686176896
116,wellington,-41.2866,174.7756,284.96,83,1,4.63,NZ,1686177138
117,ilulissat,69.2167,-51.1,272.16,74,75,3.09,GL,1686177138
118,issum,51.5333,6.4333,292.71,69,66,4.52,DE,1686177138
119,bamboo flat,11.7,92.7167,301.13,84,100,9.12,IN,1686177138
120,baharly,38.4362,57.4316,301.06,52,99,2.76,TM,1686177138
121,nar'yan-mar,67.6713,53.087,275.73,68,100,3.76,RU,1686177139
122,carnarvon,-24.8667,113.6333,288.98,58,0,5.7,AU,1686177139
123,whitehorse,60.7161,-135.0538,294.27,37,20,5.14,CA,1686176777
124,mezokovacshaza,46.4,20.9167,290.42,85,3,2.95,HU,1686177139
125,kathu,7.9178,98.3332,302.98,99,100,5.52,TH,1686177139
126,vila velha,-20.3297,-40.2925,295.34,88,0,0.51,BR,1686177140
127,ketchikan,55.3422,-131.6461,291.41,52,0,3.6,US,1686177007
128,laguna,38.421,-121.4238,298.39,54,100,6.69,US,1686177065
129,el calafate,-50.3408,-72.2768,274.0,83,95,1.6,AR,1686177140
130,aykhal,66.0,111.5,281.2,76,100,2.49,RU,1686177140
131,vorgashor,67.5833,63.95,275.38,75,80,3.59,RU,1686177141
132,codrington,-38.2667,141.9667,283.24,90,21,6.54,AU,1686177141
133,east london,-33.0153,27.9116,289.77,63,40,4.56,ZA,1686177141
134,higuera de zaragoza,25.95,-109.2833,303.11,44,25,6.06,MX,1686177141
135,talnakh,69.4865,88.3972,282.71,98,95,2.34,RU,1686177141
136,las khorey,11.1595,48.1967,304.45,67,96,2.49,SO,1686177142
137,scottsburg,38.6856,-85.7702,297.71,72,24,4.17,US,1686177142
138,polyarnyy,69.1989,33.4478,277.16,84,75,0.88,RU,1686177142
139,coahuayana de hidalgo,18.7,-103.6583,303.29,62,31,2.85,MX,1686177142
140,pisco,-13.7,-76.2167,295.18,73,75,6.17,PE,1686177040
141,itaituba,-4.2761,-55.9836,299.39,79,31,1.08,BR,1686177143
142,woolgoolga,-30.1106,153.2007,289.08,69,71,4.21,AU,1686177143
143,kavaratti,10.5669,72.642,302.69,76,92,7.69,IN,1686177143
144,north ward,-19.2454,146.8075,293.1,83,0,0.0,AU,1686177143
145,merizo village,13.2658,144.6691,301.69,85,100,5.15,GU,1686177143
146,roleystone,-32.1167,116.0667,287.21,92,40,3.09,AU,1686177143
147,sompeta,18.9333,84.6,302.9,64,91,3.07,IN,1686177144
148,vilyuchinsk,52.9306,158.4028,285.3,66,29,0.74,RU,1686177144
149,kladanj,44.2264,18.6914,286.99,96,84,1.11,BA,1686177144
150,funafuti,-8.5243,179.1942,305.15,74,40,0.0,TV,1686177144
151,wanning,18.8003,110.3967,300.2,86,100,2.24,CN,1686177144
152,warrnambool,-38.3833,142.4833,283.75,87,17,7.92,AU,1686177145
153,uturoa,-16.7333,-151.4333,300.15,62,39,8.06,PF,1686177145
154,saint-francois,46.4154,3.9054,291.84,59,0,2.06,FR,1686177145
155,nyurba,63.2842,118.3319,286.36,51,100,1.51,RU,1686177145
156,la ronge,55.1001,-105.2842,300.29,24,40,2.57,CA,1686177145
157,richards bay,-28.783,32.0377,293.58,52,0,4.01,ZA,1686177146
158,waingapu,-9.6567,120.2641,297.47,78,45,3.39,ID,1686177146
159,inhambane,-23.865,35.3833,294.44,87,0,4.37,MZ,1686177146
160,nadi,-17.8,177.4167,296.15,83,75,2.06,FJ,1686177146
161,ambah,26.7075,78.2261,305.47,22,0,1.89,IN,1686177146
162,la foa,-21.7108,165.8276,295.18,60,6,3.14,NC,1686177146
163,taro,-8.3862,115.28,295.15,96,69,0.57,ID,1686177147
164,hermanus,-34.4187,19.2345,287.48,84,75,4.38,ZA,1686177147
165,portland,45.5234,-122.6762,303.12,40,75,3.09,US,1686176459
166,jiuquan,39.7432,98.5174,292.98,17,45,0.57,CN,1686177147
167,anadyr,64.75,177.4833,281.43,87,75,3.0,RU,1686177147
168,myeik,12.4333,98.6,299.41,90,100,4.8,MM,1686177148
169,khanty-mansiysk,61.0042,69.0019,285.21,100,75,2.0,RU,1686177148
170,kristiansund,63.1115,7.732,282.18,93,100,2.06,NO,1686177148
171,rongelap,11.1635,166.8941,301.06,82,97,7.4,MH,1686177148
172,wenchang,30.904,118.4887,297.18,89,89,1.76,CN,1686177148
173,dunedin,-45.8742,170.5036,281.37,83,1,0.45,NZ,1686177042
174,kavieng,-2.5744,150.7967,301.15,77,100,1.71,PG,1686177149
175,skaelskor,55.2506,11.2935,290.36,56,0,2.78,DK,1686177149
176,benguela,-12.5763,13.4055,293.62,89,62,0.72,AO,1686177149
177,albany,42.6001,-73.9662,289.08,70,100,2.68,US,1686176789
178,angaur state,6.906,134.13,301.94,76,97,6.4,PW,1686177149
179,bratsk,56.1325,101.6142,287.42,70,18,0.44,RU,1686177150
180,st. john's,47.5649,-52.7093,286.08,94,100,2.06,CA,1686176940
181,nhamunda,-2.1861,-56.7131,299.12,82,33,1.32,BR,1686177150
182,caleta de carquin,-11.0925,-77.6267,295.65,82,20,4.51,PE,1686177150
183,susuman,62.7833,148.1667,286.92,56,99,2.03,RU,1686177151
184,bechar,31.6167,-2.2167,306.33,15,5,3.6,DZ,1686177151
185,retiro,-34.5833,-58.3833,291.08,90,100,3.6,AR,1686177151
186,hirara,24.8,125.2833,300.07,89,20,5.14,JP,1686177151
187,guelma,36.4621,7.4261,294.43,85,100,0.97,DZ,1686177151
188,berezovo,63.9381,65.0419,281.13,59,92,4.82,RU,1686177152
189,bakchar,57.0186,82.0711,290.29,89,58,1.27,RU,1686177152
190,tura,25.5198,90.2201,299.27,77,92,2.68,IN,1686177152
191,chernyshevskiy,63.0128,112.4714,282.11,79,100,0.56,RU,1686177152
192,berbera,10.4396,45.0143,305.44,56,75,3.32,SO,1686177152
193,port-vila,-17.7338,168.3219,297.93,69,75,3.6,VU,1686177153
194,bredasdorp,-34.5322,20.0403,285.95,83,85,2.74,ZA,1686177153
195,hengchun,22.0042,120.7439,300.78,77,92,3.39,TW,1686177153
196,selfoss,63.9331,-20.9971,280.95,87,91,5.74,IS,1686177153
197,nova sintra,14.8667,-24.7167,294.98,83,6,2.41,CV,1686177153
198,camiri,-20.05,-63.5167,298.03,65,40,0.0,BO,1686177154
199,iskateley,67.6803,53.1512,275.71,69,100,3.8,RU,1686177154
200,egilsstadir,65.2653,-14.3948,283.1,62,0,7.2,IS,1686177154
201,el salto,20.3333,-104.5,302.44,32,4,4.32,MX,1686177154
202,fort st. john,56.2499,-120.8529,297.09,23,40,4.12,CA,1686177011
203,bozuyuk,39.9078,30.0367,288.31,92,3,0.47,TR,1686177155
204,mandalgovi,45.7625,106.2708,288.21,42,5,3.87,MN,1686177155
205,usogorsk,63.4106,48.6872,274.93,84,84,1.52,RU,1686177155
206,hadibu,12.65,54.0333,302.14,77,100,3.9,YE,1686177155
207,novobataysk,46.8981,39.7819,290.82,57,79,3.02,RU,1686177155
208,taoudenni,22.6783,-3.9836,308.57,14,0,4.71,ML,1686177155
209,new norfolk,-42.7826,147.0587,287.87,90,100,0.94,AU,1686177156
210,sydney mines,46.2367,-60.2177,285.39,91,100,5.66,CA,1686177156
211,barquisimeto,10.0739,-69.3228,302.5,48,23,4.63,VE,1686176893
212,kamiiso,41.8167,140.65,290.36,94,40,2.57,JP,1686177156
213,birao,10.2849,22.7882,297.84,79,97,1.97,CF,1686177157
214,chipata,-13.6333,32.65,287.45,65,0,2.18,ZM,1686177157
215,lata,40.1629,-8.3327,291.99,92,41,1.91,PT,1686177157
216,aasiaat,68.7098,-52.8699,272.44,80,99,3.72,GL,1686177157
217,tual,-5.6667,132.75,300.71,82,46,2.49,ID,1686177157
218,coquimbo,-29.9533,-71.3436,288.0,94,75,3.6,CL,1686177004
219,marumori,37.9167,140.7667,294.77,65,100,0.79,JP,1686177158
220,praia da vitoria,38.7333,-27.0667,291.29,82,40,8.19,PT,1686177158
221,acapulco de juarez,16.8634,-99.8901,305.05,58,0,3.6,MX,1686177101
222,barah,13.7,30.3667,302.48,49,92,1.78,SD,1686177158
223,gorlice,49.6556,21.1604,290.53,95,70,1.13,PL,1686177158
224,kapuskasing,49.4169,-82.4331,293.2,26,40,8.75,CA,1686176970
225,maceio,-9.6658,-35.7353,297.84,100,75,1.03,BR,1686176883
226,kenai,60.5544,-151.2583,288.72,77,100,8.23,US,1686177092
227,arvayheer,46.2639,102.775,287.71,51,4,2.59,MN,1686177159
228,itoman,26.1247,127.6694,300.16,89,20,6.69,JP,1686177159
229,trairi,-3.2778,-39.2689,299.19,84,0,4.34,BR,1686177159
230,kabalo,-6.05,26.9167,295.83,57,0,1.08,CD,1686177159
231,ormara,25.2088,64.6357,301.11,93,1,4.67,PK,1686177160
232,port elizabeth,-33.918,25.5701,287.21,93,0,1.54,ZA,1686177160
233,san patricio,28.017,-97.5169,306.2,71,70,3.59,US,1686177160
234,san clemente del tuyu,-36.3569,-56.7235,285.36,83,28,3.4,AR,1686177160
235,jacmel,18.2342,-72.5347,303.06,79,99,4.06,HT,1686177160
236,trinidad,-14.8333,-64.9,303.14,66,20,0.0,BO,1686177161
237,hotan,37.0997,79.9269,294.78,30,99,2.8,CN,1686177161
238,alcantara,-2.4089,-44.4147,300.26,90,62,2.4,BR,1686177161
239,happy valley-goose bay,53.3168,-60.3315,279.32,93,100,9.77,CA,1686177161
240,nguigmi,14.2495,13.1092,301.61,61,100,3.0,NE,1686177161
241,kabompo,-13.5927,24.2008,290.51,48,20,1.86,ZM,1686177162
242,lihue,21.9789,-159.3672,301.18,71,20,4.63,US,1686177162
243,plettenberg bay,-34.0527,23.3716,286.63,72,35,1.92,ZA,1686177000
244,shangzhi,45.2167,127.9667,290.25,81,82,4.12,CN,1686177162
245,urangan,-25.3,152.9,293.64,70,94,1.42,AU,1686177162
246,basco,20.4487,121.9702,300.19,74,21,5.12,PH,1686177162
247,torzhok,57.0436,34.9622,280.3,84,1,1.84,RU,1686177163
248,villa ojo de agua,-29.5,-63.6938,289.81,81,70,3.46,AR,1686177163
249,lebu,-37.6167,-73.65,286.1,73,100,6.42,CL,1686177163
250,ciudad melchor muzquiz,27.8833,-101.5167,305.36,40,99,2.46,MX,1686177163
251,posto fiscal rolim de moura,-13.0833,-62.2667,298.71,59,90,1.42,BR,1686177163
252,machico,32.7,-16.7667,295.21,84,40,4.63,PT,1686177164
253,dudinka,69.4058,86.1778,282.94,72,88,4.89,RU,1686177164
254,kostanay,53.1667,63.5833,285.31,82,0,6.0,KZ,1686177164
255,labrador city,52.9463,-66.9114,278.1,87,100,7.2,CA,1686177164
256,horezu,45.15,24.0167,286.49,68,100,1.25,RO,1686177164
257,ain sefra,32.75,-0.5833,300.49,26,10,3.47,DZ,1686177164
258,ulanhot,46.0833,122.0833,288.74,51,58,9.39,CN,1686177165
259,hithadhoo,-0.6,73.0833,301.43,66,51,0.6,MV,1686177165
260,qui nhon,13.7667,109.2333,300.34,77,100,1.9,VN,1686177165
261,comodoro rivadavia,-45.8667,-67.5,284.07,37,0,1.54,AR,1686176912
262,nuuk,64.1835,-51.7216,275.49,64,75,5.66,GL,1686177166
263,leua,48.2156,18.6071,287.81,93,48,1.78,SK,1686177166
264,shama junction,5.0087,-1.6301,298.01,89,97,2.75,GH,1686177166
265,xiulin,29.7167,112.4,296.69,81,45,1.68,CN,1686177166
266,vadso,70.0744,29.7487,277.64,75,40,1.54,NO,1686177166
267,al manaqil,14.2459,32.9891,303.83,46,37,2.91,SD,1686177166
268,belaya kholunitsa,58.84,50.8528,280.8,83,85,1.37,RU,1686177167
269,dauphin,51.1494,-100.0502,301.23,69,0,6.69,CA,1686177167
270,georgetown,5.4112,100.3354,302.01,83,20,2.06,MY,1686177002
271,mejit,10.2753,170.8646,300.66,83,87,7.28,MH,1686177167
272,xai-xai,-25.0519,33.6442,293.2,66,0,3.63,MZ,1686177167
273,alto araguaia,-17.3147,-53.2153,292.77,49,45,1.61,BR,1686177168
274,vila franca do campo,37.7167,-25.4333,291.38,82,46,7.34,PT,1686177168
275,tazacorte,28.629,-17.9293,294.69,96,0,3.6,ES,1686177168
276,zhanibek,49.4167,46.85,288.49,65,57,2.85,KZ,1686177168
277,holualoa,19.6228,-155.9522,299.06,81,40,4.63,US,1686177168
278,grand forks,47.9417,-97.4337,297.41,67,20,6.17,US,1686176888
279,darhan,49.4867,105.9228,290.61,34,15,0.86,MN,1686177169
280,corralillo,22.9819,-80.5856,301.05,73,96,2.15,CU,1686177169
281,kisangani,0.5167,25.2,294.77,97,58,0.87,CD,1686177169
282,geraldton,-28.7667,114.6,282.38,93,75,3.6,AU,1686177169
283,nishinoomote,30.7333,131.0,295.68,98,100,3.17,JP,1686177169
284,kalmunai,7.4167,81.8167,299.68,80,100,2.67,LK,1686177169
285,'ain el turk,35.7438,-0.7693,294.65,88,40,3.6,DZ,1686177170
286,nenjiang,49.1833,125.2167,287.81,73,77,4.09,CN,1686177170
287,gao,16.6362,1.637,305.86,9,96,3.73,ML,1686177170
288,utrik,11.2278,169.8474,300.93,82,69,7.52,MH,1686177170
289,mari-turek,56.7895,49.6235,285.39,78,71,5.63,RU,1686177170
290,conchas,-23.0153,-48.0106,290.0,71,0,0.9,BR,1686177171
291,buchanan,5.8808,-10.0467,298.44,88,99,1.98,LR,1686177171
292,nova vicosa,-17.8919,-39.3719,295.44,76,16,2.96,BR,1686177171
293,turner,44.2565,-70.2562,287.41,79,100,3.58,US,1686177171
294,matamey,13.4231,8.4749,302.74,39,100,6.36,NE,1686177171
295,cabeza del buey,38.7223,-5.2195,291.61,70,100,2.4,ES,1686177171
296,gorodoviki,46.1353,41.9656,287.68,67,21,3.28,RU,1686177172
297,kodiak,57.79,-152.4072,281.88,93,100,4.63,US,1686177172
298,nouadhibou,20.931,-17.0347,293.49,97,90,5.85,MR,1686177172
299,mayqayyng,51.4625,75.7986,295.37,39,17,5.37,KZ,1686177172
300,alaghsas,17.0187,8.0168,303.16,39,48,7.68,NE,1686177172
301,yengema,8.7167,-11.1667,295.1,99,99,0.85,SL,1686177173
302,lompoc,34.6391,-120.4579,292.47,81,100,5.81,US,1686177173
303,wakkanai,45.4094,141.6739,285.22,97,100,2.73,JP,1686177023
304,acarau,-2.8856,-40.12,299.2,84,1,5.28,BR,1686177173
305,wamba,8.9333,8.6,296.37,90,98,0.72,NG,1686177174
306,isangel,-19.55,169.2667,297.21,60,20,2.06,VU,1686177174
307,kon tum,14.35,108.0,295.24,99,100,0.84,VN,1686177174
308,simplicio mendes,-7.8539,-41.9103,299.78,56,7,4.48,BR,1686177174
309,zapolyarnyy,69.4154,30.8136,276.75,79,80,2.06,RU,1686177174
310,keflavik,64.0049,-22.5624,282.39,93,100,7.72,IS,1686177174
311,qaqortoq,60.7167,-46.0333,275.8,85,17,1.69,GL,1686177175
312,kuala tungkal,-0.8167,103.4667,296.95,95,100,1.83,ID,1686177175
313,zhezqazghan,47.7833,67.7667,297.62,40,23,4.25,KZ,1686177175
314,agat village,13.3886,144.6585,301.9,85,100,1.79,GU,1686177175
315,guangyuan,32.442,105.823,293.46,81,84,1.25,CN,1686177175
316,el sauzal de rodriguez,31.9,-116.6833,292.83,64,42,5.01,MX,1686177175
317,vyaz'ma,55.2104,34.2951,284.48,85,68,1.1,RU,1686177140
318,labytnangi,66.6572,66.4183,279.53,66,8,1.76,RU,1686177176
319,botshabelo,-29.2702,26.7052,281.8,50,2,3.28,ZA,1686177176
320,sandnessjoen,66.0217,12.6316,279.0,77,100,5.4,NO,1686177176
321,zalingei,12.9096,23.4741,297.41,68,92,0.59,SD,1686177176
322,klyuchi,52.2667,79.1667,294.9,45,87,3.05,RU,1686177176
323,chela,34.069,104.4619,284.62,65,100,1.78,CN,1686177177
324,kazerun,29.6195,51.6541,299.27,31,64,1.18,IR,1686177177
325,kharp,66.8014,65.8081,278.7,69,19,2.46,RU,1686177177
326,laojunmiao,39.8333,97.7333,291.1,17,91,0.62,CN,1686177177
327,barreiro do jaiba,-15.6167,-43.6,296.92,40,17,1.85,BR,1686177177
328,qorveh,35.1664,47.8045,288.23,61,98,1.86,IR,1686177178
329,walvis bay,-22.9575,14.5053,284.87,78,0,2.99,NA,1686177178
330,bardai,11.65,7.2333,297.23,64,100,2.46,NG,1686177178
331,luderitz,-26.6481,15.1594,286.82,83,4,4.04,NA,1686177178
332,kapsan-up,41.0903,128.2933,289.25,80,100,1.3,KP,1686177178
333,changping,40.2186,116.2197,289.95,17,35,2.73,CN,1686177179
334,enewetak,11.3474,162.3373,300.9,80,92,6.46,MH,1686177179
335,tromso,69.6496,18.957,278.36,70,75,4.12,NO,1686177179
336,manikchari,22.8408,91.844,298.52,88,99,0.79,BD,1686177179
337,gamba,-2.65,10.0,295.88,89,97,1.67,GA,1686177180
338,raja,8.4596,25.678,296.84,73,74,1.62,SS,1686177180
339,alofi,-19.0595,-169.9187,298.09,78,75,3.09,NU,1686177180
340,brookings,44.3114,-96.7984,303.18,54,20,6.17,US,1686177122
341,klaksvik,62.2266,-6.589,282.66,85,100,4.76,FO,1686177180
342,fort bragg,35.139,-79.006,296.9,63,100,4.63,US,1686176977
343,daru,-9.0763,143.2092,298.88,88,100,8.01,PG,1686177181
344,ujae,8.9322,165.7642,301.65,78,99,7.15,MH,1686177181
345,chonchi,-42.6128,-73.8092,282.66,92,100,5.44,CL,1686177181
346,guerrero negro,27.9769,-114.0611,292.69,55,35,9.0,MX,1686177181
347,alice springs,-23.7,133.8833,279.9,93,0,2.57,AU,1686177181
348,hinton,53.4001,-117.5857,300.91,15,38,0.4,CA,1686177182
349,arawa,-6.2132,155.5367,302.8,69,14,0.95,PG,1686177182
350,palikir - national government center,6.9248,158.1611,302.56,79,75,2.06,FM,1686177182
351,vernon,50.2581,-119.2691,306.44,10,21,1.54,CA,1686177182
352,mchinji,-13.7984,32.8802,286.59,68,0,1.43,MW,1686177182
353,bel ombre,-4.6167,55.4167,301.06,74,40,5.66,SC,1686177183
354,callao,-12.0667,-77.15,297.31,73,0,6.69,PE,1686177183
355,flying fish cove,-10.4217,105.6791,297.97,88,100,6.69,CX,1686177183
356,christchurch,-43.5333,172.6333,283.38,90,4,1.03,NZ,1686177184
357,stiens,53.2623,5.7577,284.81,87,100,4.63,NL,1686177184
358,mangochi,-14.4782,35.2645,292.15,60,0,1.9,MW,1686177184
359,kudat,6.8837,116.8477,298.11,94,20,1.54,MY,1686177184
360,maddagiri,13.6606,77.2092,297.83,71,90,2.97,IN,1686177184
361,igarka,67.4667,86.5833,286.53,65,76,2.42,RU,1686177185
362,shimanovsk,52.0,127.7,285.98,94,100,3.71,RU,1686177185
363,puerto armuelles,8.2833,-82.8667,301.02,77,100,0.45,PA,1686177185
364,saint-pierre,-21.3393,55.4781,294.02,73,20,1.54,RE,1686177186
365,saint-joseph,-21.3667,55.6167,293.41,79,22,5.28,RE,1686177186
366,xique xique,-10.8217,-42.7311,300.35,53,53,6.83,BR,1686177186
367,ixtapa,20.7,-105.2,301.72,70,40,4.63,MX,1686177186
368,labuan,5.2767,115.2417,300.35,83,20,0.51,MY,1686177186
369,tibu,8.639,-72.7358,302.35,71,36,0.9,CO,1686177187
370,amherst,41.3978,-82.2224,294.29,40,0,6.69,US,1686177187
371,puerto baquerizo moreno,-0.9,-89.6,299.7,78,75,3.09,EC,1686177187
372,remire-montjoly,4.9167,-52.2667,298.17,88,0,1.54,GF,1686177046
373,gizo,-8.103,156.8419,301.26,78,47,3.02,SB,1686177188
374,arteche,12.2645,125.4048,300.29,83,100,3.35,PH,1686177188
375,tidjikja,18.5564,-11.4271,306.73,14,10,4.89,MR,1686177188
376,barra de santo antonio,-9.4047,-35.5072,297.75,88,10,3.7,BR,1686177188
377,tumaco,1.7986,-78.8156,299.41,87,83,3.81,CO,1686177189
378,erdaojiang,41.7764,126.0319,288.74,96,100,1.49,CN,1686177189
379,fenoarivo atsinanana,-17.3667,49.4167,294.15,92,19,2.23,MG,1686177189
380,san juan de miraflores,-12.1629,-76.9635,296.44,82,25,4.0,PE,1686177189
381,salalah,17.0151,54.0924,302.2,84,40,1.54,OM,1686177190
382,akdagmadeni,39.6603,35.8836,284.46,82,2,1.41,TR,1686177190
383,bereznik,62.8551,42.7072,275.74,76,30,0.94,RU,1686177190
384,illela,13.7292,5.2975,306.91,38,98,7.72,NG,1686177190
385,palmas,-10.2128,-48.3603,302.08,51,0,2.57,BR,1686177191
386,cide,41.8921,33.0044,291.44,84,6,3.55,TR,1686177191
387,saipan,15.1355,145.701,301.84,100,20,5.81,MP,1686177191
388,vilyuysk,63.7553,121.6247,286.26,45,100,1.42,RU,1686177191
389,fisterra,42.9049,-9.2629,292.6,92,61,6.28,ES,1686177192
390,lazaro cardenas,17.9583,-102.2,302.85,59,23,4.66,MX,1686177192
391,nemuro,43.3236,145.575,284.8,96,59,4.41,JP,1686177038
392,kununurra,-15.7667,128.7333,292.14,82,97,1.54,AU,1686177192
393,bhamo,24.2667,97.2333,298.14,95,100,0.58,MM,1686177192
394,margate,51.3813,1.3862,284.76,84,2,4.47,GB,1686177193
395,kourou,5.1552,-52.6478,298.18,86,99,2.93,GF,1686177004
396,turbat,26.0023,63.044,303.94,63,2,4.4,PK,1686177193
397,vetlanda,57.4289,15.0776,283.78,84,7,1.25,SE,1686177194
398,talara,-4.5772,-81.2719,299.57,69,0,5.14,PE,1686177194
399,villeneuve-sur-lot,44.5,0.6667,293.18,87,97,3.43,FR,1686177194
400,chake chake,-5.2459,39.7666,297.03,91,71,4.51,TZ,1686177194
401,hobyo,5.3505,48.5268,299.89,83,85,11.49,SO,1686177194
402,aban,56.67,96.06,293.19,62,2,2.25,RU,1686177195
403,concepcion del oro,24.6333,-101.4167,300.22,19,58,4.56,MX,1686177195
404,natal,-5.795,-35.2094,299.51,94,40,3.09,BR,1686177195
405,beyneu,45.3167,55.2,294.79,35,34,4.47,KZ,1686177195
406,sao paulo de olivenca,-3.3783,-68.8725,297.09,97,70,0.41,BR,1686177195
407,konosha,60.9736,40.257,275.26,91,35,1.73,RU,1686177196
408,magadan,59.5667,150.8,287.89,70,9,1.8,RU,1686177196
409,igurubi,-4.0,33.7,290.63,35,0,4.05,TZ,1686177196
410,tasqala,51.1167,50.3167,288.82,56,80,2.77,KZ,1686177196
411,i-n-salah,27.1935,2.4607,305.47,19,2,7.88,DZ,1686177197
412,nizhnevartovsk,60.9344,76.5531,288.16,100,20,3.13,RU,1686177197
413,indi,17.1667,75.9667,301.67,57,30,7.95,IN,1686177197
414,carbonear,47.7332,-53.2148,282.17,94,100,2.22,CA,1686177197
415,tralee,52.2704,-9.7026,284.86,85,66,3.14,IE,1686177198
416,hammerfest,70.6634,23.6821,277.4,70,75,2.06,NO,1686177198
417,sakaiminato,35.55,133.2333,293.14,100,75,1.54,JP,1686177198
418,fort mcmurray,56.7268,-111.381,299.92,21,0,7.72,CA,1686177006
419,benghazi,32.1167,20.0667,294.85,82,57,7.88,LY,1686177198
420,touros,-5.1989,-35.4608,298.91,84,6,5.55,BR,1686177198
421,mebane,36.096,-79.267,291.97,92,20,2.06,US,1686177199
422,lathi,21.7167,71.3833,301.26,72,0,5.74,IN,1686177199
423,amga,60.8953,131.9608,291.29,59,74,1.93,RU,1686177199
424,santa ana de yacuma,-13.75,-65.4333,303.12,70,75,0.0,BO,1686177200
425,copiapo,-27.3667,-70.3333,286.98,75,16,2.22,CL,1686177042
426,belmonte,-15.8631,-38.8828,296.18,77,5,3.86,BR,1686177200
427,port hedland,-20.3167,118.5667,288.18,55,6,2.57,AU,1686177200
428,lethem,3.3803,-59.7968,298.69,85,35,3.58,GY,1686177200
429,yeniseysk,58.4497,92.1703,292.3,77,65,2.17,RU,1686177201
430,trochtelfingen,48.3084,9.2449,289.04,68,21,0.49,DE,1686177201
431,severo-yeniseyskiy,60.3725,93.0408,292.01,74,78,1.63,RU,1686177201
432,ubinskoye,55.3068,79.6802,291.14,65,69,2.63,RU,1686177201
433,sampit,-2.5333,112.95,296.09,98,100,1.17,ID,1686177202
434,zhezkent,50.9311,81.3615,294.18,48,27,5.48,KZ,1686177202
435,armacao de buzios,-22.7469,-41.8817,290.18,81,0,2.44,BR,1686177202
436,saiha,22.4833,92.9667,294.96,92,100,1.02,IN,1686177202
437,sulejow,51.3544,19.8854,287.14,95,18,2.46,PL,1686177202
438,illapel,-31.6308,-71.1653,290.88,59,87,0.24,CL,1686177203
439,saldanha,-33.0117,17.9442,287.18,86,91,10.86,ZA,1686177203
440,amahai,-3.3333,128.9167,299.09,85,97,1.22,ID,1686177203
441,jingdezhen,29.2947,117.2079,296.7,93,92,0.22,CN,1686177203
442,arish,31.1316,33.7984,295.99,76,76,2.96,EG,1686177204
443,port augusta,-32.5,137.7667,284.79,54,16,5.07,AU,1686177204
444,laiwu,36.1928,117.6569,297.05,60,31,1.23,CN,1686177204
445,beaufort west,-32.3567,22.583,284.81,71,1,6.93,ZA,1686177204
446,papao,-17.75,-149.55,301.97,70,64,9.83,PF,1686177204
447,stanley,54.868,-1.6985,283.09,80,75,2.06,GB,1686177204
448,ottawa,45.4112,-75.6981,289.39,53,100,4.63,CA,1686176529
449,santa elena de uairen,4.6167,-61.1333,293.72,91,40,1.71,VE,1686177205
450,colonia,50.9333,6.95,291.94,83,50,1.03,DE,1686176939
451,khandyga,62.6667,135.6,290.78,59,100,2.18,RU,1686177205
452,hami,42.8,93.45,300.41,15,2,1.01,CN,1686177205
453,bandarbeyla,9.4942,50.8122,299.66,83,100,11.13,SO,1686177206
454,peseux,46.987,6.889,288.69,72,38,1.54,CH,1686177206
455,sitka,57.0531,-135.33,289.09,63,75,2.57,US,1686176947
456,chuncheon,37.8747,127.7342,292.12,73,100,1.4,KR,1686177206
457,gaogou,34.0175,119.1886,297.95,51,64,4.68,CN,1686177206
458,senanga,-16.1167,23.2667,292.28,36,70,1.77,ZM,1686177206
459,shalkar,47.8288,59.6258,292.37,44,68,5.85,KZ,1686177207
460,along,28.1667,94.7667,295.98,79,44,0.58,IN,1686177207
461,el porvenir,13.7617,-87.3458,303.78,80,96,1.39,HN,1686177207
462,prince rupert,54.3161,-130.3201,293.2,57,0,5.14,CA,1686177010
463,san luis de la loma,17.2706,-100.8939,303.73,56,31,2.92,MX,1686177207
464,kampong cham,11.9934,105.4635,298.47,83,100,2.73,KH,1686177208
465,bol,13.4586,14.7147,301.62,63,93,0.81,TD,1686177208
466,kalevala,65.2,31.1667,278.82,89,92,1.87,RU,1686177208
467,slupca,52.2873,17.8719,291.04,72,9,2.45,PL,1686177208
468,novyy urgal,51.0736,132.5642,288.5,76,95,2.81,RU,1686177135
469,butha-buthe,-28.8333,28.5,277.83,77,4,1.96,LS,1686177209
470,malpica,43.3228,-8.8105,292.24,81,73,2.09,ES,1686177210
471,weno,7.4515,151.8468,303.12,79,40,1.54,FM,1686177210
472,brezina,33.0989,1.2608,300.72,28,63,7.39,DZ,1686177210
473,tazovsky,67.4667,78.7,279.19,72,63,4.8,RU,1686177210
474,queenstown,-31.8976,26.8753,284.25,25,32,4.48,ZA,1686177210
475,gaspe,48.8334,-64.4819,281.27,100,100,5.14,CA,1686177211
476,koryazhma,61.3143,47.1691,278.09,68,99,1.97,RU,1686177211
477,palmer,42.1584,-72.3287,290.8,66,100,3.6,US,1686177185
478,robertsport,6.7533,-11.3686,299.42,83,100,2.59,LR,1686177211
479,rio grande,-32.035,-52.0986,292.21,92,97,2.64,BR,1686177211
480,copala,16.65,-98.9833,303.68,54,51,3.54,MX,1686177212
481,sussex,41.1834,-74.6663,292.2,47,100,3.09,US,1686177212
482,beypazari,40.1675,31.9211,292.53,63,0,2.12,TR,1686177212
483,north platte,41.1239,-100.7654,302.63,38,0,1.79,US,1686177212
484,mustafabad,30.8922,73.4989,303.9,36,0,2.6,PK,1686177213
485,nchelenge,-9.3451,28.734,294.4,58,27,2.11,ZM,1686177213
486,mammoth lakes,37.6485,-118.9721,287.55,39,100,6.17,US,1686177213
487,santa terezinha,-29.9002,-50.0904,292.94,75,35,2.63,BR,1686177213
488,maganoy,6.9167,124.4333,298.62,86,89,0.23,PH,1686177214
489,solwezi,-12.1688,26.3894,288.87,56,0,1.3,ZM,1686177214
490,ganye,8.4333,12.0667,294.98,92,45,1.45,NG,1686177214
491,hasaki,35.7333,140.8333,298.27,68,96,2.65,JP,1686177214
492,mazatlan,23.2167,-106.4167,302.13,75,0,5.66,MX,1686177024
493,thunder bay,48.4001,-89.3168,295.14,28,20,2.06,CA,1686177215
494,kruisfontein,-34.0033,24.7314,283.64,84,22,2.79,ZA,1686177215
495,sarmiento,-45.5882,-69.07,279.91,56,100,1.41,AR,1686177215
496,undurkhaan,47.3194,110.6556,286.61,32,50,2.87,MN,1686177215
497,itati,-27.2704,-58.2446,294.65,67,6,2.83,AR,1686177215
498,las tunas,20.9617,-76.9511,298.51,89,100,3.44,CU,1686177215
499,plastun,44.7561,136.2939,285.95,96,100,1.18,RU,1686177216
500,manicore,-5.8092,-61.3003,298.66,88,98,1.04,BR,1686177216
501,klina,42.6217,20.5778,289.81,92,100,0.41,XK,1686177216
502,lembeni,-3.7833,37.6167,290.42,89,0,3.02,TZ,1686177216
503,port macquarie,-31.4333,152.9167,288.88,73,38,4.06,AU,1686177217
504,faya-largeau,17.9257,19.1043,304.92,37,100,2.73,TD,1686177217
505,ulsteinvik,62.3432,5.8487,284.68,85,69,4.47,NO,1686177217
506,new baltimore,42.6811,-82.7369,295.47,30,20,7.2,US,1686176947
507,mitchell,43.7094,-98.0298,307.14,27,0,7.72,US,1686177217
508,oblivskaya,48.5362,42.5014,287.71,72,24,1.25,RU,1686177218
509,manta,-0.95,-80.7333,302.03,89,75,7.6,EC,1686177197
510,arraial do cabo,-22.9661,-42.0278,288.13,100,0,0.0,BR,1686177218
511,pesqueira,-8.3578,-36.6964,292.84,98,58,3.46,BR,1686177218
512,lahad datu,5.0268,118.327,298.55,89,84,0.72,MY,1686177218
513,kayangel,8.0823,134.7173,301.45,79,100,6.4,PW,1686177219
514,stephenville,32.2207,-98.2023,303.8,78,75,3.09,US,1686177219
515,malvan,16.0667,73.4667,301.81,82,39,3.0,IN,1686177219
516,salem,11.65,78.1667,298.98,79,100,1.37,IN,1686176953
517,aegina,37.7467,23.4275,298.12,67,100,2.0,GR,1686177220
518,vovchans'k,50.3003,36.9467,290.82,74,81,1.87,UA,1686177220
519,upington,-28.4478,21.2561,284.36,37,0,0.0,ZA,1686177013
520,sisimiut,66.9395,-53.6735,273.46,69,100,2.38,GL,1686177076
521,ouesso,1.6136,16.0517,295.07,96,47,1.27,CG,1686177220
522,kill devil hills,36.0307,-75.676,294.15,77,100,0.0,US,1686177220
523,fukuecho,32.6881,128.8419,292.17,90,100,5.93,JP,1686177220
524,podilsk,47.7578,29.5298,288.11,54,100,1.91,UA,1686177221
525,aral,40.5156,81.2636,299.1,18,100,4.0,CN,1686177221
526,changling,44.2653,124.0005,290.93,67,0,1.34,CN,1686177221
527,vicente guerrero,19.1194,-98.1708,291.81,59,84,1.46,MX,1686177221
528,pacific grove,36.6177,-121.9166,292.6,73,100,4.47,US,1686177221
529,villa de soto,-30.8552,-64.9995,292.82,75,88,2.55,AR,1686177221
530,leava,-14.3,-178.1667,300.84,72,84,2.51,WF,1686177222
531,ilha solteira,-20.4328,-51.3425,293.79,51,0,0.49,BR,1686177222
532,ponta delgada,37.7333,-25.6667,291.55,68,20,1.54,PT,1686177222
533,prado,-17.3411,-39.2208,294.94,78,5,2.41,BR,1686177222
534,cape coast,5.1053,-1.2466,298.78,85,90,3.94,GH,1686177222
535,chakradharpur,22.7,85.6333,302.81,25,63,1.46,IN,1686177222
536,gharghoda,22.1667,83.35,302.19,31,29,1.71,IN,1686177223
537,marica,-22.9194,-42.8186,295.1,81,0,3.85,BR,1686177223
538,villa general belgrano,-31.9754,-64.5559,287.96,85,84,2.1,AR,1686177223
539,hun,29.1268,15.9477,295.36,50,67,4.9,LY,1686177223
540,puerto lempira,15.2667,-83.7667,301.23,74,75,3.6,HN,1686177096
541,filipstad,59.7124,14.1683,285.01,69,3,2.33,SE,1686177223
542,wundanyi,-3.4019,38.364,288.44,86,3,2.42,KE,1686177224
543,el-tor,28.2364,33.6254,299.23,65,0,3.6,EG,1686177224
544,iskushuban,10.2837,50.23,302.64,55,100,6.96,SO,1686177224
545,curup,-3.4667,102.5333,292.85,98,60,1.09,ID,1686177224
546,masvingo,-20.0637,30.8277,288.04,61,0,2.39,ZW,1686177224
547,kingston,17.997,-76.7936,303.68,73,20,9.77,JM,1686177057
548,nuevitas,21.5453,-77.2644,297.42,94,100,3.35,CU,1686177225
549,kargopol',61.5071,38.9456,276.45,95,34,1.73,RU,1686177225
550,ariquemes,-9.9133,-63.0408,297.37,89,78,1.52,BR,1686177068
551,sittwe,20.15,92.9,299.76,87,100,3.29,MM,1686177225
552,usinsk,65.9939,57.5281,275.3,77,51,4.1,RU,1686177225
553,zhangye,38.9342,100.4517,293.39,18,8,3.08,CN,1686177225
554,kete krachi,7.7939,-0.0498,299.76,80,70,6.58,GH,1686177226
555,pierre,44.3683,-100.351,307.19,31,0,2.57,US,1686177226
556,suva,-18.1416,178.4415,293.86,94,75,3.6,FJ,1686177226
557,tafuna,-14.3358,-170.72,300.12,94,100,5.14,AS,1686177227
558,pahrump,36.2083,-115.9839,297.56,35,82,2.68,US,1686177227
559,ishim,56.1128,69.4902,288.13,93,93,6.46,RU,1686177136
560,kidal,18.4411,1.4078,306.96,14,36,3.29,ML,1686177227
561,tataouine,32.9297,10.4518,293.82,69,68,1.85,TN,1686177227
562,baardheere,2.3446,42.2764,298.28,79,96,5.86,SO,1686177227
563,kataba,13.9833,44.3833,293.49,49,61,0.88,YE,1686177228
564,sechura,-5.5569,-80.8222,300.13,63,49,6.89,PE,1686177228
565,port lincoln,-34.7333,135.8667,287.54,69,21,8.62,AU,1686177228
566,gerash,27.6652,54.1371,300.76,26,46,0.84,IR,1686177228
567,melekeok village,7.4957,134.6367,298.46,94,75,1.54,PW,1686177228
568,xining,36.6167,101.7667,285.46,57,99,1.28,CN,1686177229
569,mirny,62.5353,113.9611,283.28,66,96,0.89,RU,1686177229
570,verkhnevilyuysk,63.4453,120.3167,286.37,48,99,0.17,RU,1686177229
571,holmsund,63.706,20.3641,282.56,81,0,1.03,SE,1686176932
572,stornoway,58.2093,-6.3865,283.2,82,22,2.06,GB,1686177229
573,khorinsk,52.1657,109.7726,286.99,41,77,1.65,RU,1686177230
574,kiuruvesi,63.65,26.6167,277.9,71,80,1.48,FI,1686177230
575,tynda,55.1667,124.7167,285.29,92,84,2.9,RU,1686177230
576,orchard homes,46.8633,-114.0484,304.23,35,0,2.57,US,1686177230
577,pasuquin,18.3328,120.6177,298.12,100,40,2.06,PH,1686177230
578,coreau,-3.5333,-40.6567,297.41,81,48,0.72,BR,1686177231
579,mossel bay,-34.1831,22.146,284.11,72,77,3.14,ZA,1686177231
